code,city,country,lat,lon,url,hubsize,roles,people
LON,LONDON,UNITED KINGDOM,51.50722,-0.12750,http://www.meetup.com/ethereum/,Small hub,Communication,Stephan Tual
YTO,TORONTO,CANADA,43.7001100,-79.4163000,http://www.meetup.com/Bitcoin-Toronto/,HQ North America,Development,Vitalik Buterin
AMS,AMSTERDAM,NETHERLANDS,52.374004,4.890359,http://www.meetup.com/Amsterdam-Ethereum-Meetup/,Small hub,Generic role,Generic person
SIV,SILICON VALLEY,USA,37.362517,-122.034760,http://www.meetup.com/Los-Angeles-Ethereum/,Small hub,Generic role,Generic person
NYC,NEW YORK,USA,40.7142700,-74.0059700,http://www.meetup.com/EthereumNYC/,Small hub,Generic role,Generic person
ZUG,ZUG,SWITZERLAND,47.174589,8.513854,http://www.meetup.com/EthereumNYC/,HQ Europe,Development,<p> Generic person </p><p> Generic person </p><p> Generic person </p>
