code,city,country,lat,lon,url,hubsize,roles,people
LON,LONDON,UNITED KINGDOM,51.50722,-0.12750,http://www.meetup.com/ethereum/,Small hub,Communication,Stephan Tual
YTO,TORONTO,CANADA,43.7001100,-79.4163000,http://www.meetup.com/Bitcoin-Toronto/,Large hub,Development,Vitalik Buterin
AMS,AMSTERDAM,NETHERLANDS,52.374004,4.890359,http://www.meetup.com/Amsterdam-Ethereum-Meetup/,Small hub,Generic role,Generic person
SIV,SILICON VALLEY,USA,34.0522300,-118.2436800,http://www.meetup.com/Los-Angeles-Ethereum/,Small hub,Generic role,Generic person
NYC,NEW YORK,USA,40.7142700,-74.0059700,http://www.meetup.com/EthereumNYC/,Small hub,Generic role,Generic person
ZUG,ZUG,SWITZERLAND,40.7142700,-74.0059700,http://www.meetup.com/EthereumNYC/,Large hub,Development,Generic person
